City_ID,City,Lat,Lng,Max Temp,Humidity,Cloudiness,Wind Speed,Country,Date
0,edinburgh of the seven seas,-37.0676,-12.3116,16.81,95,100,14.91,SH,1733111594
1,hamilton,39.1834,-84.5333,-3.92,69,75,2.68,US,1733111595
2,lihue,21.9789,-159.3672,24.77,74,20,4.12,US,1733111596
3,qaqortoq,60.7167,-46.0333,-1.66,98,100,2.58,GL,1733111597
4,tiksi,71.6872,128.8694,-25.13,100,65,2.16,RU,1733111598
5,sofo-birnin-gwari,11.0154,6.7804,18.86,22,99,5.44,NG,1733111599
6,bredasdorp,-34.5322,20.0403,15.8,82,4,1.05,ZA,1733111600
7,lae,-6.7221,146.9847,28.55,69,87,4.32,PG,1733111602
8,west island,-12.1568,96.8225,28.99,89,75,5.66,CC,1733111604
9,iqaluit,63.7506,-68.5145,-10.15,72,100,5.66,CA,1733111606
10,katsuren-haebaru,26.3369,127.8719,25.05,54,40,5.14,JP,1733111608
11,kalmunai,7.4167,81.8167,27.71,76,48,0.97,LK,1733111609
12,vila velha,-20.3297,-40.2925,23.97,94,75,1.54,BR,1733111610
13,adamstown,-25.066,-130.1015,23.21,77,93,6.18,PN,1733111611
14,tateyama,34.9833,139.8667,14.98,63,3,1.8,JP,1733111612
15,erattupetta,9.7,76.7833,24.3,96,100,0.61,IN,1733111613
16,sitka,57.0531,-135.33,5.94,81,100,1.54,US,1733111615
17,vila franca do campo,37.7167,-25.4333,18.27,99,91,1.96,PT,1733111616
18,grytviken,-54.2811,-36.5092,5.09,92,100,6.12,GS,1733111617
19,albany,42.6001,-73.9662,-3.08,72,22,0.45,US,1733111618
20,thompson,55.7435,-97.8558,-17.91,85,75,1.54,CA,1733111619
21,tura,25.5198,90.2201,23.8,52,38,0.89,IN,1733111620
22,uturoa,-16.7333,-151.4333,28.24,72,96,3.23,PF,1733111621
23,hawaiian paradise park,19.5933,-154.9731,23.82,83,100,2.06,US,1733111623
24,punta arenas,-53.15,-70.9167,6.06,75,75,8.75,CL,1733111624
25,copala,16.65,-98.9833,24.28,78,0,1.69,MX,1733111625
26,itaberaba,-12.5275,-40.3069,21.52,86,84,1.16,BR,1733111626
27,sinop,41.7711,34.8709,0.94,84,9,3.7,TR,1733111627
28,kupang,-10.1667,123.5833,33.32,75,40,4.63,ID,1733111628
29,lompoc,34.6391,-120.4579,11.4,80,0,2.57,US,1733111629
30,lucapa,-8.4192,20.7447,18.07,98,100,0.8,AO,1733111630
31,ilulissat,69.2167,-51.1,-13.99,61,75,0.0,GL,1733111632
32,ribeira grande,38.5167,-28.7,19.32,91,62,3.13,PT,1733111633
33,bethel,41.3712,-73.414,-2.26,67,1,1.67,US,1733111634
34,loukhi,66.0764,33.0381,4.55,91,100,6.52,RU,1733111635
35,nar'yan-mar,67.6713,53.087,-6.3,92,99,5.81,RU,1733111636
36,bamboo flat,11.7,92.7167,30.05,70,40,3.09,IN,1733111639
37,puerto natales,-51.7236,-72.4875,3.4,94,100,3.22,CL,1733111640
38,hithadhoo,-0.6,73.0833,27.75,79,100,9.79,MV,1733111641
39,barentu,15.1139,37.5928,20.24,69,98,1.58,ER,1733111642
40,ephrata,40.1798,-76.1788,-2.25,67,0,2.57,US,1733111612
41,maumere,-8.6199,122.2111,29.68,70,100,1.86,ID,1733111644
42,ozark,37.0209,-93.206,-1.38,86,17,1.39,US,1733111646
43,bilibino,68.0546,166.4372,-17.52,95,81,1.2,RU,1733111647
44,humahuaca,-23.2054,-65.3505,16.6,65,63,2.0,AR,1733111648
45,bubaque,11.2833,-15.8333,27.97,57,84,3.97,GW,1733111649
46,mount isa,-20.7333,139.5,33.87,52,40,8.75,AU,1733111650
47,fort william,56.8165,-5.1121,5.17,93,100,3.11,GB,1733111652
48,kirensk,57.7853,108.1119,-27.73,94,41,0.5,RU,1733111653
49,blackmans bay,-43.0167,147.3167,25.07,63,56,2.65,AU,1733111654
50,el bayadh,33.6832,1.0193,8.39,69,99,1.34,DZ,1733111655
51,zhanibek,49.4167,46.85,-1.94,92,41,3.2,KZ,1733111656
52,nieuw amsterdam,5.8833,-55.0833,24.88,89,59,3.87,SR,1733111657
53,longyearbyen,78.2186,15.6401,-13.09,78,75,2.57,SJ,1733111514
54,dryden,49.7833,-92.7503,-8.84,92,75,2.06,CA,1733111660
55,udachny,66.4167,112.4,-30.69,91,78,2.62,RU,1733111661
56,mollendo,-17.0231,-72.0147,18.64,90,100,3.18,PE,1733111662
57,katpur,21.05,71.7833,24.45,45,68,5.91,IN,1733111663
58,east london,-33.0153,27.9116,17.52,88,0,2.57,ZA,1733111664
59,port-aux-francais,-49.35,70.2167,3.9,77,98,3.92,TF,1733111665
60,port lincoln,-34.7333,135.8667,28.22,47,100,13.34,AU,1733111667
61,talnakh,69.4865,88.3972,-8.89,90,100,10.05,RU,1733111668
62,margaret river,-33.95,115.0667,16.86,51,98,7.15,AU,1733111669
63,labytnangi,66.6572,66.4183,-14.9,93,63,3.42,RU,1733111670
64,kalabo,-14.97,22.6814,20.03,63,20,2.25,ZM,1733111671
65,fortuna,40.5982,-124.1573,7.51,100,0,3.09,US,1733111672
66,tazovsky,67.4667,78.7,-13.82,96,100,3.34,RU,1733111673
67,nabire,-3.3667,135.4833,30.7,65,31,2.3,ID,1733111675
68,vadso,70.0744,29.7487,-2.91,93,100,9.77,NO,1733111676
69,tenosique,17.4833,-91.4333,21.58,91,10,1.87,MX,1733111677
70,paracuru,-3.41,-39.0306,26.47,75,75,4.78,BR,1733111678
71,whitehorse,60.7161,-135.0538,-15.57,71,100,5.14,CA,1733111223
72,new norfolk,-42.7826,147.0587,20.57,58,96,3.41,AU,1733111680
73,carnarvon,-24.8667,113.6333,23.21,61,13,7.96,AU,1733111681
74,enewetak,11.3474,162.3373,28.02,82,55,10.65,MH,1733111683
75,brisas de zicatela,15.8369,-97.0419,24.65,65,2,1.85,MX,1733111684
76,saldanha,-33.0117,17.9442,15.03,87,19,5.81,ZA,1733111685
77,susuman,62.7833,148.1667,-15.35,96,97,1.55,RU,1733111686
78,nuuk,64.1835,-51.7216,-0.66,80,100,6.17,GL,1733111687
79,port mathurin,-19.6833,63.4167,24.31,77,49,5.82,MU,1733111688
80,puerto ayora,-0.7393,-90.3518,21.02,90,59,2.1,EC,1733111691
81,waitangi,-43.9535,-176.5597,13.23,78,78,4.02,NZ,1733111692
82,port saint john's,-31.6229,29.5448,20.65,92,100,3.77,ZA,1733111693
83,northam,51.0333,-4.2167,9.78,90,50,9.4,GB,1733111694
84,ebon,4.582,168.6964,28.14,76,77,5.1,MH,1733111695
85,greater sudbury,46.49,-80.99,-3.86,89,35,0.89,CA,1733111698
86,la paz,-16.5,-68.15,11.43,76,75,1.03,BO,1733111699
87,olonkinbyen,70.9221,-8.7187,-10.75,74,100,12.81,SJ,1733111700
88,hanceville,34.0607,-86.7675,5.11,82,0,2.37,US,1733111701
89,port alfred,-33.5906,26.891,16.77,94,100,4.32,ZA,1733111702
90,port hedland,-20.3167,118.5667,36.03,38,96,8.75,AU,1733111703
91,georgetown,5.4112,100.3354,29.97,62,20,2.57,MY,1733111705
92,isafjordur,66.0755,-23.124,-11.43,75,51,3.96,IS,1733111706
93,isiro,2.7739,27.616,17.69,86,6,0.96,CD,1733111707
94,revda,56.801,59.9303,-3.87,91,96,4.9,RU,1733111708
95,kotlas,61.2611,46.6556,2.21,98,100,5.02,RU,1733111709
96,afaahiti,-17.75,-149.2833,26.47,79,80,5.6,PF,1733111711
97,bima,-8.4667,118.7167,31.05,72,95,2.15,ID,1733111685
98,fale old settlement,-9.3852,-171.2468,28.79,74,40,6.63,TK,1733111713
99,coxim,-18.5067,-54.76,26.72,67,69,3.38,BR,1733111715
100,constantia,44.1833,28.65,4.38,76,100,7.15,RO,1733111645
101,yellowknife,62.456,-114.3525,-18.66,97,100,2.57,CA,1733111492
102,ust-nera,64.5667,143.2,-16.19,98,100,0.63,RU,1733111720
103,ushuaia,-54.8,-68.3,4.81,75,0,6.69,AR,1733111721
104,bo phloi,14.3236,99.5161,28.1,59,99,2.28,TH,1733111722
105,sebdou,34.637,-1.3314,11.42,59,100,0.09,DZ,1733111723
106,rawalpindi,33.6007,73.0679,15.13,70,8,1.21,PK,1733111724
107,warrnambool,-38.3833,142.4833,23.92,53,66,1.3,AU,1733111725
108,pisco,-13.7,-76.2167,19.03,88,0,6.69,PE,1733111727
109,papatowai,-46.5619,169.4708,15.19,69,100,3.86,NZ,1733111728
110,kidodi,-7.6036,37.0044,23.83,76,83,0.3,TZ,1733111729
111,stefan voda,46.5153,29.6631,0.79,78,100,2.84,MD,1733111730
112,la sierpe,21.7717,-79.2684,21.17,95,48,3.26,CU,1733111731
113,tofol,5.3248,163.0078,30.88,70,75,3.6,FM,1733111732
114,waingapu,-9.6567,120.2641,32.59,61,99,6.12,ID,1733111733
115,namibe,-15.1961,12.1522,20.18,81,91,1.92,AO,1733111734
116,al bawiti,28.3492,28.8659,11.73,86,0,2.88,EG,1733111736
117,sandnessjoen,66.0217,12.6316,2.1,90,100,20.31,NO,1733111737
118,vorgashor,67.5833,63.95,-9.97,95,100,7.38,RU,1733111738
119,dudinka,69.4058,86.1778,-9.49,90,100,9.5,RU,1733111739
120,sarandi,-23.4436,-51.8739,24.75,83,0,2.57,BR,1733111740
121,luuq,3.7938,42.5445,24.74,52,67,3.79,SO,1733111741
122,wewak,-3.5534,143.6268,25.75,92,100,1.24,PG,1733111742
123,grande prairie,55.1667,-118.8027,-18.9,84,75,1.54,CA,1733111715
124,urucara,-2.5364,-57.76,26.79,61,6,1.51,BR,1733111745
125,chernyshevskiy,63.0128,112.4714,-32.11,98,43,1.12,RU,1733111746
126,kodiak,57.79,-152.4072,0.73,86,100,4.63,US,1733111747
127,duong dong,10.2167,103.9667,31.0,66,40,3.6,VN,1733111748
128,tomatlan,19.9333,-105.25,20.38,89,0,1.5,MX,1733111749
129,rio grande,-32.035,-52.0986,21.34,91,100,10.87,BR,1733111750
130,sao joao da barra,-21.6403,-41.0511,23.32,93,21,2.79,BR,1733111751
131,brokopondo,4.75,-55.1667,24.71,89,98,4.16,SR,1733111753
132,panadura,6.7132,79.9026,28.05,73,64,5.07,LK,1733111754
133,ardestan,33.3761,52.3694,3.01,54,0,0.67,IR,1733111755
134,moussoro,13.6408,16.4901,16.95,30,31,4.63,TD,1733111756
135,gereida,11.2811,25.1414,14.72,27,44,4.47,SD,1733111757
136,saipan,15.1355,145.701,31.39,76,40,6.69,MP,1733111758
137,wailua homesteads,22.0669,-159.378,24.44,79,20,4.12,US,1733111761
138,matoury,4.8483,-52.3317,24.98,94,100,1.54,GF,1733111762
139,itaituba,-4.2761,-55.9836,28.01,58,96,0.83,BR,1733111763
140,dolores,-36.3132,-57.6792,10.25,86,0,7.72,AR,1733111764
141,pandan,14.0453,124.1694,29.06,78,76,2.05,PH,1733111765
142,grand falls-windsor,48.9332,-55.6649,-0.28,76,5,1.34,CA,1733111766
143,mount pearl,47.5166,-52.7813,1.29,93,75,5.66,CA,1733111767
144,aykhal,66.0,111.5,-27.72,85,78,3.7,RU,1733111768
145,oranjemund,-28.55,16.4333,14.96,94,40,5.32,NA,1733111770
146,jamestown,42.097,-79.2353,-4.99,92,100,6.17,US,1733111772
147,flying fish cove,-10.4217,105.6791,28.12,73,87,2.59,CX,1733111773
148,san antonio de pale,-1.4014,5.6325,25.92,82,97,2.36,GQ,1733111774
149,luchegorsk,46.4764,134.2569,-5.37,91,100,4.62,RU,1733111776
150,fort st. john,56.2499,-120.8529,-20.06,77,100,4.63,CA,1733111777
151,chandler,33.3062,-111.8412,18.82,36,0,1.54,US,1733111577
152,st. john's,47.5649,-52.7093,1.75,92,75,5.66,CA,1733111519
153,payson,40.0444,-111.7321,1.13,58,0,1.54,US,1733111780
154,quellon,-43.1167,-73.6167,8.71,72,67,4.9,CL,1733111781
155,vorkuta,67.5,64.0,-10.03,95,100,7.55,RU,1733111782
156,avarua,-21.2078,-159.775,25.03,83,40,4.12,CK,1733111783
157,santana,-0.0583,-51.1817,27.1,83,0,3.09,BR,1733111785
158,gadzhiyevo,69.2551,33.3362,-4.18,96,100,4.06,RU,1733111786
159,oxford,51.7522,-1.256,10.92,92,75,3.6,GB,1733111787
160,naze,28.3667,129.4833,21.51,53,20,2.81,JP,1733111788
161,chonchi,-42.6128,-73.8092,7.29,69,54,2.06,CL,1733111789
162,kavarna,43.4333,28.3333,7.84,78,100,6.89,BG,1733111790
163,broome,42.2506,-75.833,-3.59,75,40,4.12,US,1733111791
164,bonito,-21.1211,-56.4819,27.78,59,3,3.77,BR,1733111792
165,agadez,19.75,10.25,13.5,30,6,3.49,NE,1733111794
166,kaohsiung,22.6163,120.3133,26.97,64,20,4.12,TW,1733111593
167,hualien city,23.9769,121.6044,22.88,72,47,2.15,TW,1733111797
168,illela,13.7292,5.2975,18.47,23,10,4.47,NG,1733111798
169,sinabang,2.4803,96.3801,25.41,84,100,0.62,ID,1733111799
170,rumoi,43.9344,141.6428,4.08,73,99,2.48,JP,1733111801
171,kapuskasing,49.4169,-82.4331,-2.95,100,100,4.12,CA,1733111803
172,liman,48.9884,37.8023,-2.49,88,90,1.27,UA,1733111804
173,tallulah,32.4085,-91.1868,7.0,65,0,2.06,US,1733111805
174,mount gambier,-37.8333,140.7667,30.65,21,100,3.6,AU,1733111806
175,taghazout,30.5426,-9.7112,20.9,39,18,3.57,MA,1733111807
176,tataouine,32.9297,10.4518,11.31,72,0,1.25,TN,1733111809
177,atafu village,-8.5421,-172.5159,28.76,73,21,6.27,TK,1733111810
178,placido de castro,-10.3353,-67.1856,24.72,83,100,1.21,BR,1733111811
179,huntsville,34.7304,-86.5861,3.15,79,0,2.24,US,1733111812
180,badger,64.8,-147.5333,-32.07,73,0,0.0,US,1733111813
181,crossett,33.1282,-91.9612,4.49,76,0,2.28,US,1733111814
182,talcahuano,-36.7167,-73.1167,12.82,76,0,4.63,CL,1733111815
183,isangel,-19.55,169.2667,30.06,79,75,3.6,VU,1733111816
184,fuling,29.7022,107.3919,16.25,58,0,1.36,CN,1733111818
185,huaidian,33.4333,115.0333,13.58,32,0,6.16,CN,1733111819
186,coronel dorrego,-38.7187,-61.2873,11.04,73,32,7.59,AR,1733111820
187,gondar,12.6,37.4667,12.73,73,80,2.1,ET,1733111821
188,sechura,-5.5569,-80.8222,20.07,83,22,5.26,PE,1733111822
189,khedbrahma,24.0333,73.05,22.48,29,0,2.72,IN,1733111823
190,muleshoe,34.2265,-102.7238,5.4,57,11,3.54,US,1733111824
191,nouadhibou,20.931,-17.0347,20.99,46,73,4.12,MR,1733111825
192,malpura,26.2833,75.3833,21.19,29,0,2.15,IN,1733111827
193,invercargill,-46.4,168.35,17.79,75,100,2.68,NZ,1733111828
194,olovyannaya,50.95,115.5667,-20.1,79,20,2.5,RU,1733111829
195,illizi,26.4833,8.4667,13.39,32,74,2.32,DZ,1733111830
196,hermanus,-34.4187,19.2345,17.04,81,37,1.65,ZA,1733111831
197,arraial do cabo,-22.9661,-42.0278,23.09,92,4,8.95,BR,1733111832
198,kincardine,56.0667,-3.7167,7.26,92,100,4.67,GB,1733111833
199,llorente,11.4119,125.5458,29.06,77,71,3.39,PH,1733111835
200,anadyr,64.75,177.4833,-7.72,93,100,5.0,RU,1733111836
201,las palmas,28.4204,-14.0131,17.44,32,0,2.57,ES,1733111837
202,dunedin,-45.8742,170.5036,17.11,74,100,2.24,NZ,1733111672
203,hami,42.8,93.45,0.2,56,100,2.72,CN,1733111839
204,oltinko'l,40.8011,72.1634,5.32,65,4,1.0,UZ,1733111840
205,ciudad lazaro cardenas,17.9583,-102.2,24.24,87,0,1.4,MX,1733111841
206,college,64.8569,-147.8028,-32.03,68,0,0.0,US,1733111843
207,igarka,67.4667,86.5833,-9.52,93,100,8.38,RU,1733111844
208,santa marta,11.2408,-74.199,28.83,73,40,6.26,CO,1733111266
209,horta,38.5333,-28.6333,18.34,91,73,2.68,PT,1733111846
210,saudarkrokur,65.7461,-19.6394,-14.88,88,54,4.5,IS,1733111847
211,ambalangoda,6.2355,80.0538,28.88,72,52,5.89,LK,1733111848
212,cabo san lucas,22.8909,-109.9124,22.64,90,0,2.54,MX,1733111569
213,ratnagiri,16.9833,73.3,28.12,55,100,0.88,IN,1733111850
214,changleng,28.7,115.8167,20.56,36,4,1.39,CN,1733111852
215,ancud,-41.8697,-73.8203,7.5,76,11,3.3,CL,1733111853
216,zaozersk,69.4005,32.4476,-5.04,96,100,2.58,RU,1733111854
217,kayangel,8.0823,134.7173,29.33,76,85,8.36,PW,1733111855
218,grantsville,40.5999,-112.4644,0.91,91,0,2.06,US,1733111856
219,sisimiut,66.9395,-53.6735,-9.22,70,100,4.5,GL,1733111857
220,haiku-pauwela,20.9219,-156.3051,24.03,79,34,4.92,US,1733111858
221,sipalay,9.75,122.5,29.66,74,79,1.83,PH,1733111861
222,pinhao,-25.6956,-51.6597,18.16,86,45,1.41,BR,1733111862
223,san patricio,28.017,-97.5169,17.53,84,100,4.34,US,1733111863
224,lakatoro,-16.0999,167.4164,28.77,71,8,4.04,VU,1733111864
225,lata,40.1629,-8.3327,11.89,86,100,1.05,PT,1733111865
226,daru,-9.0763,143.2092,29.37,76,100,1.64,PG,1733111866
227,fort mcmurray,56.7268,-111.381,-20.23,77,100,2.57,CA,1733111867
228,ixtapa,20.7,-105.2,23.46,84,1,1.28,MX,1733111869
229,rajanpur,29.1035,70.325,22.37,29,20,2.84,PK,1733111870
230,port-gentil,-0.7193,8.7815,26.91,80,70,3.05,GA,1733111871
231,klaksvik,62.2266,-6.589,-0.44,74,100,12.08,FO,1733111872
232,am timan,11.0297,20.2827,18.92,23,37,2.82,TD,1733111873
233,priargunsk,50.3691,119.1012,-20.38,89,64,3.06,RU,1733111874
234,antsiranana,-12.2787,49.2917,24.42,88,75,2.06,MG,1733111875
235,fort bragg,35.139,-79.006,3.84,78,100,1.54,US,1733111877
236,ishigaki,24.3448,124.1572,26.07,61,40,6.17,JP,1733111878
237,lerwick,60.1545,-1.1494,4.95,71,100,12.4,GB,1733111879
238,kavaratti,10.5669,72.642,27.52,67,41,5.86,IN,1733111880
239,mutuali,-14.8706,37.0044,19.22,62,22,0.76,MZ,1733111881
240,petropavlovsk-kamchatsky,53.0452,158.6483,0.33,93,100,3.0,RU,1733111882
241,kudahuvadhoo,2.6708,72.8944,28.07,74,25,8.37,MV,1733111883
242,baturaja,-4.1333,104.1667,30.24,65,92,0.24,ID,1733111884
243,esfarayen,37.0765,57.5101,0.32,64,1,0.44,IR,1733111886
244,mankoeng,-23.9,29.8167,17.13,51,0,1.59,ZA,1733111887
245,zaragoza,41.6561,-0.8773,7.25,100,100,0.51,ES,1733111888
246,villa gesell,-37.2639,-56.973,13.13,79,3,11.58,AR,1733111889
247,ascension,30.2169,-90.9001,7.78,89,0,1.54,US,1733111890
248,lashkar gah,31.5938,64.3716,8.36,47,1,4.24,AF,1733111891
249,selfoss,63.9331,-20.9971,-11.09,56,11,4.19,IS,1733111893
250,plettenberg bay,-34.0527,23.3716,16.35,76,24,1.82,ZA,1733111894
251,jepelacio,-6.1167,-76.95,18.54,84,98,0.75,PE,1733111895
252,belmonte,-15.8631,-38.8828,24.29,91,78,3.86,BR,1733111896
253,traverse city,44.7631,-85.6206,1.04,75,100,4.12,US,1733111857
254,broken hill,-31.95,141.4333,23.2,66,100,8.25,AU,1733111898
255,crane,31.3974,-102.3501,12.37,53,4,4.32,US,1733111902
256,ola,59.5833,151.2833,-2.09,80,94,5.33,RU,1733111903
257,khandyga,62.6667,135.6,-23.0,92,100,0.26,RU,1733111904
258,yigo village,13.5361,144.8886,30.62,69,20,9.77,GU,1733111905
259,shache,38.4167,77.2406,4.06,37,56,1.73,CN,1733111907
260,greer,34.9387,-82.2271,3.9,68,0,1.54,US,1733111840
261,at taj,24.2049,23.2857,10.42,60,0,2.76,LY,1733111909
262,nemuro,43.3236,145.575,4.36,50,15,1.48,JP,1733111911
263,stanley,54.868,-1.6985,6.39,92,75,2.57,GB,1733111915
264,"laikit, laikit ii (dimembe)",1.4792,124.9735,24.47,89,75,1.54,ID,1733111916
265,kone,-21.0595,164.8658,30.33,50,71,2.84,NC,1733111917
266,marlow,51.5693,-0.7742,11.16,90,39,2.68,GB,1733111918
267,tidjikja,18.5564,-11.4271,18.71,19,100,5.19,MR,1733111921
268,la ronge,55.1001,-105.2842,-23.86,77,40,0.51,CA,1733111922
269,cobija,-11.0267,-68.7692,24.84,78,100,1.3,BO,1733111923
270,colonia,50.9333,6.95,8.36,88,100,3.09,DE,1733111924
271,mermoz boabab,14.7065,-17.4758,24.88,69,0,4.12,SN,1733111925
272,ust'-ilimsk,58.0006,102.6619,-21.6,89,5,1.26,RU,1733111928
273,la almunia de dona godina,41.4767,-1.3745,14.24,68,100,2.37,ES,1733111929
274,nova sintra,14.8667,-24.7167,26.02,65,96,8.48,CV,1733111930
275,batang,-6.4846,110.7083,27.65,79,100,1.31,ID,1733111859
276,codrington,-38.2667,141.9667,27.27,40,91,6.57,AU,1733111932
277,tainan,22.9908,120.2133,23.95,57,40,1.54,TW,1733111708
278,kashin,57.3592,37.6081,0.77,94,100,4.04,RU,1733111934
279,praia da vitoria,38.7333,-27.0667,18.14,94,75,1.77,PT,1733111935
280,glace bay,46.1969,-59.957,-0.75,74,20,2.06,CA,1733111937
281,kangding,30.0513,101.9603,12.8,43,0,0.67,CN,1733111938
282,santo tome,-31.6627,-60.7653,13.88,95,0,2.55,AR,1733111939
283,tual,-5.6667,132.75,27.88,79,100,5.64,ID,1733111940
284,luderitz,-26.6481,15.1594,16.51,64,0,10.01,NA,1733111941
285,galle,6.0367,80.217,28.85,78,81,0.89,LK,1733111942
286,bandarbeyla,9.4942,50.8122,25.92,71,28,6.19,SO,1733111943
287,ingeniero luis a. huergo,-39.0833,-67.2333,13.27,20,4,3.9,AR,1733111944
288,beyneu,45.3167,55.2,-1.04,78,8,2.48,KZ,1733111947
289,agat village,13.3886,144.6585,31.52,79,40,9.77,GU,1733111948
290,puerto baquerizo moreno,-0.9,-89.6,21.47,87,66,4.16,EC,1733111949
291,la passe,45.5549,-0.8967,13.4,96,100,3.14,FR,1733111950
292,hell-ville,-13.4,48.2667,23.93,80,40,0.0,MG,1733111952
293,galesong,-5.3166,119.3661,29.64,74,95,4.35,ID,1733111953
294,ozalp,38.6548,43.993,-10.38,95,40,1.4,TR,1733111954
295,kulhudhuffushi,6.6221,73.07,28.11,64,65,7.82,MV,1733111955
296,kenai,60.5544,-151.2583,-3.81,85,100,8.23,US,1733111956
297,alice springs,-23.7,133.8833,27.75,65,100,7.2,AU,1733111958
298,utrik,11.2278,169.8474,27.69,75,41,9.87,MH,1733111960
299,lubango,-14.9172,13.4925,14.92,100,100,2.06,AO,1733111961
300,manjeshvar,12.7,74.8833,27.66,76,92,5.45,IN,1733111962
301,ma'rib,15.4591,45.3253,18.21,50,62,1.63,YE,1733111963
302,houma,29.5958,-90.7195,9.0,78,0,0.0,US,1733111964
303,lhasa,29.65,91.1,5.79,25,0,1.95,CN,1733111965
304,banda aceh,5.5577,95.3222,28.27,72,96,1.03,ID,1733111966
305,nagireddipalli,14.2667,79.1,24.15,93,100,1.47,IN,1733111968
306,lyangasovo,58.5176,49.4472,0.65,98,100,3.9,RU,1733111969
307,tralee,52.2704,-9.7026,7.69,77,83,6.41,IE,1733111970
308,seka,17.9285,103.9552,27.93,49,3,0.52,TH,1733111971
309,bereznik,62.8551,42.7072,3.63,93,100,5.13,RU,1733111972
310,sosnovo-ozerskoye,52.5249,111.5418,-21.01,85,16,1.62,RU,1733111973
311,asaita,11.5636,41.4394,24.14,59,10,2.06,ET,1733111974
312,kingston,17.997,-76.7936,27.53,83,40,5.14,JM,1733111976
313,al mayadin,35.0209,40.4535,7.41,49,2,2.68,SY,1733111977
314,colares,38.7992,-9.4469,16.29,83,42,2.87,PT,1733111978
315,klyuchi,52.2667,79.1667,-10.02,93,100,3.09,RU,1733111979
316,bel ombre,-4.6167,55.4167,28.91,70,75,2.06,SC,1733111980
317,pita,10.8333,-12.5833,20.6,46,91,1.37,GN,1733111981
318,keflavik,64.0049,-22.5624,-8.76,67,0,3.09,IS,1733111982
319,lebu,-37.6167,-73.65,11.3,76,24,6.73,CL,1733111984
320,priozersk,61.0393,30.1291,5.56,88,100,7.73,RU,1733111985
321,mindarie,-31.6893,115.707,21.39,60,39,8.01,AU,1733111986
322,saint-philippe,-21.3585,55.7679,24.47,78,76,4.69,RE,1733111987
323,lyubokhna,53.5033,34.3885,0.47,99,99,1.87,RU,1733111988
324,alwar,27.5667,76.6,20.81,32,0,0.43,IN,1733111989
325,aasiaat,68.7098,-52.8699,-18.24,95,100,1.2,GL,1733111990
326,mili,6.0815,171.735,27.5,82,100,6.47,MH,1733111991
327,iskateley,67.6803,53.1512,-6.34,92,100,5.85,RU,1733111993
328,rocky mountain house,52.3668,-114.9188,-15.94,78,99,3.09,CA,1733111994
329,arkhangel'sk,64.5401,40.5433,3.06,100,100,6.0,RU,1733111995
330,berezovyy,51.6667,135.7,-9.68,88,100,1.82,RU,1733111996
331,kill devil hills,36.0307,-75.676,7.01,65,0,3.6,US,1733111997
332,champerico,14.3,-91.9167,26.32,67,80,2.11,GT,1733111998
333,rehoboth,-23.3167,17.0833,19.82,16,0,2.82,NA,1733111999
334,tolanaro,-25.0319,46.9987,24.04,83,40,1.03,MG,1733112001
335,prince rupert,54.3161,-130.3201,8.83,85,100,21.09,CA,1733112002
336,farafangana,-22.8167,47.8333,24.65,81,33,1.58,MG,1733112003
337,wurtulla,-26.7568,153.1256,29.61,84,47,2.24,AU,1733112004
338,porto novo,6.4965,2.6036,23.99,64,9,1.67,BJ,1733112005
339,rabigh,22.7986,39.0349,21.89,63,0,1.47,SA,1733112006
340,viedma,-40.8135,-62.9967,9.81,62,29,2.72,AR,1733112007
341,ponta delgada,37.7333,-25.6667,18.44,88,20,1.54,PT,1733112009
342,greytown,-29.0642,30.5928,16.63,89,99,0.38,ZA,1733112010
343,coquimbo,-29.9533,-71.3436,13.85,84,0,2.06,CL,1733112011
344,barranca,-10.75,-77.7667,19.56,86,100,2.57,PE,1733112012
345,kapa'a,22.0752,-159.319,24.15,82,47,3.55,US,1733112013
346,karratha,-20.7377,116.8463,36.05,29,98,6.71,AU,1733112014
347,grajewo,53.6473,22.4554,0.12,94,1,3.81,PL,1733112015
348,zhezqazghan,47.7833,67.7667,-5.68,93,100,5.0,KZ,1733112017
349,juan de ayolas,-27.4,-56.9,21.86,96,79,5.45,PY,1733112018
350,kohtla-jarve,59.3986,27.2731,2.48,87,13,6.56,EE,1733112019
351,magadan,59.5667,150.8,-2.77,78,65,6.49,RU,1733112020
352,zhaotong,27.3167,103.7167,10.13,73,97,2.21,CN,1733112021
353,newman,37.3138,-121.0208,10.58,87,16,1.6,US,1733112022
354,zalingei,12.9096,23.4741,15.0,27,41,1.16,SD,1733112023
355,rikaze,29.25,88.8833,3.47,24,0,0.81,CN,1733112024
356,chengyang,27.0892,119.6453,22.76,47,0,0.64,CN,1733112026
357,holualoa,19.6228,-155.9522,23.26,68,26,3.16,US,1733112027
358,fort madison,40.6298,-91.3151,-6.62,58,0,3.09,US,1733112028
359,carlos chagas,-17.7031,-40.7664,22.91,95,100,1.47,BR,1733112029
360,lazaro cardenas,17.9583,-102.2,24.24,87,0,1.4,MX,1733111841
361,ljusdal,61.8288,16.0913,6.96,92,100,5.39,SE,1733112031
362,darsi,15.7695,79.6777,25.85,84,100,5.88,IN,1733112032
363,caconda,-13.7333,15.0667,16.29,85,100,1.26,AO,1733112034
364,port elizabeth,-33.918,25.5701,15.73,97,0,1.54,ZA,1733111867
365,greenland,43.0362,-70.8328,-1.75,69,0,3.09,US,1733112036
366,weno,7.4515,151.8468,28.77,77,23,6.87,FM,1733112037
367,childress,34.4264,-100.204,7.13,59,0,2.48,US,1733112038
368,wangon,-7.5161,109.0539,28.2,78,100,2.21,ID,1733112039
369,tocopilla,-22.092,-70.1979,19.45,77,42,3.66,CL,1733112040
370,vershino-darasunskiy,52.35,115.5167,-19.05,69,100,4.32,RU,1733112041
371,mozarlandia,-14.7447,-50.5706,22.84,96,100,2.4,BR,1733112043
372,orchard mesa,39.043,-108.5523,1.36,66,0,2.57,US,1733112044
373,fisterra,42.9049,-9.2629,14.31,86,22,5.76,ES,1733112045
374,callao,-12.0667,-77.15,20.95,83,75,4.63,PE,1733111820
375,xilin hot,43.9667,116.0333,-11.04,40,0,8.03,CN,1733112047
376,nuku'alofa,-21.1333,-175.2,27.19,94,75,2.57,TO,1733112048
377,korla,41.7597,86.1469,2.19,53,98,1.37,CN,1733112029
378,caribou,46.8606,-68.012,-3.08,80,75,0.0,US,1733112051
379,solnechnyy,50.7214,136.6319,-8.14,79,95,1.29,RU,1733112052
380,touros,-5.1989,-35.4608,25.63,86,20,4.42,BR,1733112053
381,qusmuryn,52.4503,64.6311,-10.48,95,99,3.67,KZ,1733112054
382,ingeniero guillermo n. juarez,-23.9,-61.85,29.63,62,91,2.28,AR,1733112055
383,itoman,26.1247,127.6694,25.05,53,20,6.17,JP,1733112056
384,queenstown,-31.8976,26.8753,14.21,87,99,1.21,ZA,1733112057
385,buala,-8.145,159.5921,28.74,75,27,2.49,SB,1733112058
386,conception bay south,47.4999,-52.9981,2.18,94,19,5.73,CA,1733112060
387,alofi,-19.0595,-169.9187,27.94,74,100,2.57,NU,1733112061
388,akureyri,65.6835,-18.0878,-18.04,85,0,3.09,IS,1733112062
389,howard springs,-12.497,131.047,33.26,68,100,2.28,AU,1733112063
390,nowy dwor gdanski,54.2131,19.1177,0.62,90,0,4.85,PL,1733112064
391,choibalsan,48.0667,114.5,-12.96,53,4,6.96,MN,1733112065
392,al jubayl,27.0112,49.6583,18.64,57,0,7.86,SA,1733112069
393,kani keli,-12.9536,45.1033,26.59,67,60,4.2,YT,1733112070
394,vung tau,10.346,107.0843,26.04,79,100,3.58,VN,1733112071
395,egilsstadir,65.2653,-14.3948,-15.05,72,0,2.57,IS,1733112073
396,karapinar,37.716,33.5506,-0.69,84,22,0.66,TR,1733112076
397,tsarevo,42.1667,27.85,9.52,82,100,5.91,BG,1733112077
398,zambezi,-13.5432,23.1047,17.31,74,72,2.34,ZM,1733112078
399,santa cruz,-17.8,-63.1667,27.7,78,100,6.17,BO,1733112079
400,toliara,-23.35,43.6667,24.75,67,0,5.59,MG,1733112080
401,gilgit,35.9221,74.3087,3.47,53,6,0.83,PK,1733112081
402,walvis bay,-22.9575,14.5053,13.67,91,0,1.26,NA,1733112082
403,virginia,37.5481,-77.4467,3.06,75,0,2.06,US,1733111949
404,saveh,35.0213,50.3566,3.72,60,1,0.96,IR,1733112085
405,yaren,-0.5472,166.916,27.98,72,25,6.47,NR,1733112086
406,port maria,18.3685,-76.8895,26.16,86,81,2.16,JM,1733112087
407,taulaga,-11.0553,-171.0883,28.41,75,81,5.4,AS,1733112088
408,mil'kovo,55.6078,37.7956,0.73,87,73,3.69,RU,1733112089
409,las vegas,36.175,-115.1372,13.71,26,0,1.54,US,1733112090
410,flin flon,54.7682,-101.865,-20.11,100,33,1.27,CA,1733112091
411,penn yan,42.6609,-77.0539,-2.65,60,68,4.92,US,1733112092
412,kapit,2.0167,112.9333,28.07,78,100,0.4,MY,1733112095
413,lospalos,-8.5186,127.0025,30.73,59,100,2.8,TL,1733112096
414,brookings,44.3114,-96.7984,-7.71,93,100,1.54,US,1733112097
415,yerofey pavlovich,53.9667,121.9667,-18.08,84,100,2.84,RU,1733112098
416,jaciara,-15.9653,-54.9683,22.96,92,100,1.59,BR,1733112100
417,marcianise,41.0322,14.3009,9.27,83,0,2.57,IT,1733112102
418,saint-joseph,-21.3667,55.6167,26.21,77,72,3.66,RE,1733112103
419,feytiat,45.8091,1.3303,10.45,87,100,1.54,FR,1733112104
420,pangody,65.85,74.4859,-17.74,93,95,4.61,RU,1733112105
421,amalapuram,16.5833,82.0167,27.98,75,97,4.2,IN,1733112106
422,ullal,12.8,74.85,27.53,78,75,4.12,IN,1733112107
423,laojunmiao,39.8333,97.7333,-2.17,54,100,2.06,CN,1733112108
424,bishkek,42.87,74.59,-0.89,63,82,1.65,KG,1733112109
425,puerto colombia,10.9878,-74.9547,29.05,81,98,7.41,CO,1733112111
426,tamanrasset,22.785,5.5228,12.34,25,71,1.46,DZ,1733112112
427,kavieng,-2.5744,150.7967,29.45,68,58,1.56,PG,1733112113
428,zhirnovsk,50.9845,44.7735,-2.58,95,99,3.22,RU,1733112114
429,leava,-14.3,-178.1667,28.41,73,95,2.23,WF,1733112115
430,iola,37.9245,-95.4,-2.91,93,0,0.0,US,1733112116
431,lamu,-2.2717,40.902,26.84,79,70,2.85,KE,1733112117
432,richfield,44.8833,-93.283,-9.14,78,0,2.06,US,1733112118
433,weyburn,49.6668,-103.8511,-21.88,77,90,6.17,CA,1733112119
434,santa rita,-7.1139,-34.9781,26.37,89,75,3.09,BR,1733112121
435,rajula,21.05,71.4333,24.11,32,79,5.09,IN,1733112122
436,ishinomaki,38.4167,141.3,10.16,56,29,2.3,JP,1733112123
437,port sudan,19.6175,37.2164,23.04,68,76,4.43,SD,1733112124
438,riosucio,5.4216,-75.7032,15.62,98,82,0.91,CO,1733112125
439,cajaruro,-5.7364,-78.4256,25.95,68,84,1.38,PE,1733112126
440,ketchikan,55.3422,-131.6461,8.21,95,100,7.46,US,1733112127
441,hadibu,12.65,54.0333,25.76,64,18,4.84,YE,1733112129
442,aktau,43.65,51.2,-0.68,64,100,4.34,KZ,1733112130
443,mahina,-17.5065,-149.489,28.87,70,0,3.6,PF,1733112131
444,bundaberg,-24.85,152.35,28.3,64,63,4.39,AU,1733112132
445,taco pozo,-25.6167,-63.2833,17.76,92,97,6.96,AR,1733112133
446,conduaga,8.862,117.4893,29.92,68,100,2.24,PH,1733112134
447,yarmouth,41.7057,-70.2286,1.1,60,0,2.57,US,1733112135
448,poyarkovo,49.6,128.6833,-15.19,87,100,5.27,RU,1733112136
449,winnemucca,40.973,-117.7357,-5.97,86,0,0.0,US,1733112138
450,deqen,29.9618,90.7188,3.45,13,0,1.74,CN,1733112139
451,ormond-by-the-sea,29.3491,-81.0665,12.78,62,0,1.34,US,1733112140
452,yuzhno-kurilsk,44.0306,145.8556,4.23,60,52,1.4,RU,1733112141
453,kokopo,-4.352,152.2633,28.13,76,68,0.4,PG,1733112142
454,waitara,-38.925,174.25,19.44,84,99,3.42,NZ,1733112143
455,san martin,-33.081,-68.4681,19.19,29,20,6.11,AR,1733112144
456,puqi,29.7167,113.8833,22.45,35,2,1.8,CN,1733112146
457,torquay,50.4638,-3.5143,8.19,91,12,1.34,GB,1733112147
458,andratx,39.5755,2.4202,10.8,83,88,1.9,ES,1733112148
459,mokopane,-24.1944,29.0097,19.72,46,2,2.51,ZA,1733112149
460,tucuma,-0.1833,-50.05,26.18,82,7,3.54,BR,1733112150
461,aksu,41.1231,80.2644,2.22,42,80,0.86,CN,1733112151
462,saint-gaudens,43.0833,0.6667,12.2,62,91,2.24,FR,1733112152
463,qui nhon,13.7667,109.2333,25.9,76,72,4.24,VN,1733112154
464,shuangcheng,45.35,126.2833,-11.39,61,1,5.97,CN,1733112155
465,whiteville,34.3388,-78.7031,2.0,80,0,0.0,US,1733112156
466,papao,-17.75,-149.55,28.82,75,77,4.92,PF,1733112157
467,phillip island,-38.4835,145.231,18.08,83,100,4.83,AU,1733112159
468,chita,52.0333,113.55,-23.06,59,31,3.0,RU,1733112160
469,mersing,2.4312,103.8405,28.95,79,40,6.69,MY,1733112161
470,hilo,19.7297,-155.09,23.94,84,100,2.06,US,1733111910
471,tepetzintla,21.1667,-97.8333,21.68,82,99,1.15,MX,1733112164
472,jindabyne,-36.4167,148.6333,24.21,34,17,5.36,AU,1733112165
473,woodlake,37.4211,-77.6793,2.75,72,75,2.57,US,1733112166
474,san lawrenz,36.0553,14.204,16.03,70,3,7.3,MT,1733112167
475,padang,-0.9492,100.3543,26.03,96,100,1.84,ID,1733112028
476,bardai,11.65,7.2333,16.66,23,78,5.92,NG,1733112169
477,arawa,-6.2132,155.5367,28.85,82,50,0.38,PG,1733112171
478,peace river,56.2501,-117.286,-16.83,78,100,3.6,CA,1733112172
479,topolobampo,25.6,-109.05,18.55,77,88,3.93,MX,1733112173
480,turku,60.4515,22.2687,6.34,82,75,6.71,FI,1733112174
481,antofagasta,-23.65,-70.4,16.6,82,100,2.29,CL,1733112175
482,beihai,21.4833,109.1,23.15,70,89,1.95,CN,1733112176
483,motygino,58.1831,94.7592,-17.0,85,91,1.62,RU,1733112177
484,tazacorte,28.629,-17.9293,20.54,76,75,4.12,ES,1733112178
485,ipubi,-7.6519,-40.1489,26.69,39,78,2.4,BR,1733112180
486,berdigestyakh,62.0989,126.6992,-23.62,96,100,2.22,RU,1733112181
487,port alberni,49.2413,-124.8028,6.63,92,99,0.89,CA,1733112182
488,baiyin,36.5583,104.2081,0.07,31,100,0.73,CN,1733112183
489,portland,45.5234,-122.6762,4.49,80,0,5.36,US,1733111686
490,nurota,40.5614,65.6886,4.36,72,21,0.92,UZ,1733112185
491,sinan,34.8262,126.1086,12.5,80,0,6.5,KR,1733112186
492,cururupu,-1.8283,-44.8683,23.41,90,12,0.78,BR,1733112187
493,phillaur,31.0292,75.7842,19.87,32,0,2.72,IN,1733112189
494,al qadarif,14.0349,35.3834,21.39,45,87,4.13,SD,1733112190
495,kharp,66.8014,65.8081,-13.38,92,95,2.83,RU,1733112191
496,cornelio procopio,-23.1811,-50.6467,25.22,66,39,0.75,BR,1733112192
497,nizhneangarsk,55.7833,109.55,-16.46,72,9,2.99,RU,1733112193
498,guerrero negro,27.9769,-114.0611,16.5,82,4,4.59,MX,1733112194
499,boma,11.7117,4.2472,21.57,24,65,4.39,NG,1733112195
500,san pedro pochutla,15.7333,-96.4667,23.73,68,0,1.42,MX,1733112196
501,harper,4.375,-7.7169,25.47,84,3,1.64,LR,1733112198
502,eduardo castex,-35.915,-64.2945,14.24,28,0,7.05,AR,1733112199
503,cannonvale,-20.2833,148.7,27.66,73,99,4.75,AU,1733112200
504,concepcion,-36.827,-73.0498,12.89,76,0,4.63,CL,1733111937
505,iquique,-20.2208,-70.1431,18.86,78,97,1.48,CL,1733112202
506,ta`u,-14.2336,-169.5144,28.04,73,100,6.68,AS,1733112203
507,el alto,-4.2714,-81.2147,18.99,85,8,8.11,PE,1733112204
508,zemio,5.0314,25.1361,18.97,51,6,1.18,CF,1733112206
509,ahtari,62.554,24.0619,5.71,88,95,7.23,FI,1733112207
510,pariaman,-0.619,100.12,26.03,95,100,2.9,ID,1733112208
511,kovel,51.2153,24.7087,0.76,92,0,4.26,UA,1733112033
512,salekhard,66.53,66.6019,-14.35,92,54,4.01,RU,1733112210
513,nagqu,31.5,92.0,-2.67,16,0,1.94,CN,1733112211
514,sakakah,29.9697,40.2064,7.76,55,21,1.32,SA,1733112212
515,usinsk,65.9939,57.5281,-10.14,97,100,5.07,RU,1733112214
516,pangkalpinang,-2.1333,106.1333,28.55,74,100,0.84,ID,1733112215
517,vilyuchinsk,52.9306,158.4028,1.15,98,100,2.34,RU,1733112216
518,divnomorskoye,44.5011,38.1353,2.35,86,20,3.46,RU,1733112217
519,lodja,-3.4833,23.4333,20.5,100,100,0.57,CD,1733112218
520,trinidad,-14.8333,-64.9,26.19,77,95,2.39,BO,1733112219
521,olyokminsk,60.3736,120.4264,-21.78,92,100,2.02,RU,1733112220
522,charlotte amalie,18.3419,-64.9307,28.34,76,4,7.31,VI,1733112221
523,mar del plata,-38.0023,-57.5575,14.01,84,0,5.14,AR,1733112030
524,sparti,37.0733,22.4297,11.08,93,100,0.62,GR,1733112224
525,aswan,24.0934,32.907,12.61,50,0,2.06,EG,1733112225
526,kindu,-2.95,25.95,19.52,99,86,0.55,CD,1733112226
527,narsinghgarh,23.7,77.1,19.66,31,49,3.22,IN,1733112228
528,alaghsas,17.0187,8.0168,16.26,21,38,4.68,NE,1733112231
529,neftekamsk,56.092,54.2703,-1.31,97,96,3.79,RU,1733112232
530,vryburg,-26.9566,24.7284,18.51,18,0,1.92,ZA,1733112233
531,soto la marina,23.7667,-98.2167,20.17,96,57,1.26,MX,1733112234
532,westport,41.1415,-73.3579,0.51,57,0,2.06,US,1733112235
533,cabinda,-5.55,12.2,24.94,89,68,1.72,AO,1733112236
534,al jawf,29.5,38.75,9.31,55,52,1.1,SA,1733112237
535,faya-largeau,17.9257,19.1043,15.73,36,14,7.78,TD,1733112238
536,greymouth,-42.4667,171.2,17.73,65,100,1.2,NZ,1733112239
537,betio village,1.358,172.9211,32.02,73,84,7.77,KI,1733111947
538,talakan,50.3167,130.3667,-14.57,87,100,5.09,RU,1733112242
539,zhumysker,49.3333,49.4,-1.91,89,98,3.4,KZ,1733112243
540,karamay,45.6004,84.8661,0.11,86,100,1.43,CN,1733112244
541,san agustin de valle fertil,-30.6335,-67.4682,19.4,32,0,2.24,AR,1733112245
542,troitsko-pechorsk,62.7084,56.1964,-3.79,96,100,2.22,RU,1733112246
543,mukalla,14.5425,49.1242,24.23,77,1,0.24,YE,1733112247
544,adis zemen,12.1167,37.7833,13.62,67,94,2.14,ET,1733112249
545,vizinga,61.0749,50.1031,0.97,97,100,4.17,RU,1733112250
546,vernon,50.2581,-119.2691,1.53,80,100,0.89,CA,1733112003
547,kismayo,-0.3582,42.5454,26.93,74,19,4.6,SO,1733112252
548,mlada boleslav,50.4114,14.9032,0.46,94,0,1.45,CZ,1733112253
549,rongelap,11.1635,166.8941,27.97,79,25,8.8,MH,1733112254
550,ngerengere,-6.75,38.1167,22.81,93,100,1.28,TZ,1733112255
551,esperanza,19.5847,-70.9849,23.5,97,18,1.32,DO,1733112256
552,kijang,35.2442,129.2139,15.85,60,0,5.5,KR,1733112257
553,kristiansund,63.1115,7.732,5.63,81,75,4.63,NO,1733112259
554,almeirim,-1.5233,-52.5817,24.89,78,24,2.14,BR,1733112260
555,barra de santo antonio,-9.4047,-35.5072,25.25,87,30,5.92,BR,1733112261
556,mbekenyera,-10.0,38.9833,23.14,78,84,0.72,TZ,1733112262
557,fukuecho,32.6881,128.8419,18.2,63,20,2.06,JP,1733112263
558,okhotsk,59.3833,143.3,-4.41,94,100,5.46,RU,1733112265
559,mecitozu,40.52,35.2953,-2.7,91,6,0.98,TR,1733112267
560,kerikeri,-35.2268,173.9474,19.92,61,37,3.48,NZ,1733112268
561,harstad,68.799,16.5293,-1.03,96,100,6.65,NO,1733112269
562,alghero,40.5589,8.3181,5.05,93,20,0.51,IT,1733112270
563,susaki,33.3667,133.2833,16.67,61,5,3.09,JP,1733112271
564,soio,-6.1349,12.3689,24.99,87,52,1.08,AO,1733112272
565,auki,-8.7676,160.7034,28.76,75,15,2.58,SB,1733112273
